{
    "shops": [
        {
            "name": "食三麵屋",
            "rate": "5/5",
            "address": "220新北市板橋區光明街87號",
            "recommend": [
                "食三叉燒飯",
                "酸辣皮蛋豆腐"
            ],
            "url": "eat-three.html",
            "img": "./img/eatthree.jpg",
            "type": "正餐",
            "longitude": "121.46227632698503",
            "latitude": "25.003839349030088"
        },
        {
            "name": "Kitchen Island 中島",
            "rate": "5/5",
            "address": "106台北市大安區忠孝東路三段276巷12號",
            "recommend": [
                "鮭魚四色飯",
                "紅酒燉牛肉"
            ],
            "url": "#",
            "img": "./img/kitchenisland.jpg",
            "type": "正餐",
            "longitude": "121.54243647005622",
            "latitude": "25.04121587283073"
        },
        {
            "name": "迥畫廊咖啡 / 自家烘焙咖啡。",
            "rate": "5/5",
            "address": "510彰化縣員林市台鳳路2號",
            "recommend": [
                "法芙娜草莓小戚風 $135",
                "熱卡布 + 冰拿鐵 $160"
            ],
            "url": "#",
            "img": "./img/IMG_1972.jpg",
            "type": "甜點",
            "longitude": "120.56728956618339",
            "latitude": "23.968711874402118"
        },
        {
            "name": "麵屋清流",
            "rate": "5/5",
            "address": "403台中市西區臺灣大道二段48號",
            "recommend": [
                "清流雞白湯",
                "鹽味雞清湯"
            ],
            "url": "chingliu.html",
            "img": "./img/chingliu.jpg",
            "type": "拉麵",
            "longitude": "120.6729349044236",
            "latitude": "24.148859333870448"
        },
        {
            "name": "春丸餐包 - 東市店",
            "rate": "3/5",
            "address": "404台中市北區五常街27號",
            "recommend": [
                "信功熱狗蛋沙拉",
                "咖哩馬鈴薯起司"
            ],
            "url": "harumaru.html",
            "img": "./img/harumaru.jpg",
            "type": "正餐",
            "longitude": "120.68098175469218",
            "latitude": "24.15360551273954"
        },
        {
            "name": "秋多咖啡 Chiutio Coffee",
            "rate": "4.5/5",
            "address": "404台中市北區大德街16號",
            "recommend": [
                "檸檬咖啡 $150",
                "高砂抹茶塔 $140"
            ],
            "url": "#",
            "img": "./img/IMG_2181.jpg",
            "type": "甜點",
            "longitude": "120.67894178264979",
            "latitude": "24.156472744023485"
        },
        {
            "name": "Waku Waku Pasta - 市府店",
            "rate": "5/5",
            "address": "110台北市信義區松高路11號4F",
            "recommend": [
                "招牌秘醬唐揚炸雞",
                "琥珀三溫糖布丁"
            ],
            "url": "waku.html",
            "img": "./img/waku.jpg",
            "type": "正餐",
            "longitude": "121.56597043868953",
            "latitude": "25.039914049838004"
        },
        {
            "name": "咖啡任務CAFETASK GIC",
            "rate": "4/5",
            "address": "403台中市西區五權西四街105號2F",
            "recommend": [
                "任務金博士 $115",
                "原味巴斯克乳酪蛋糕 $95"
            ],
            "url": "#",
            "img": "./img/IMG_0328.jpg",
            "type": "甜點",
            "longitude": "120.66297618184146",
            "latitude": "24.137181584051703"
        }, 
        {
            "name": "Waku Waku Burger - 101店",
            "rate": "5/5",
            "address": "110台北市信義區吳興街117號",
            "recommend": [
                "塔塔醬唐揚雞腿堡",
                "黑咖哩豬排飯"
            ],
            "url": "#",
            "img": "./img/53FD901E-E6CD-474B-BC91-ACAAD40F8681.jpg",
            "type": "正餐",
            "longitude": "121.56137833558239",
            "latitude": "25.030156385574703"
        },
        {
            "name": "山下公園 ラーメン",
            "rate": "4.5/5",
            "address": "403台中市西區健行路1049號金典綠園道商場三樓",
            "recommend": [
                "玉珧豚骨濃湯拉麵系列"
            ],
            "url": "#",
            "img": "./img/IMG_0039.jpg",
            "type": "拉麵",
            "longitude": "120.6633897458742",
            "latitude": "24.15591910343147"
        },
        {
            "name": "茶六燒肉堂公益店",
            "rate": "3.5/5",
            "address": "403台中市西區公益路268號",
            "recommend": [
                "醬燒橫隔膜",
                "極黑牛霜降"
            ],
            "url": "#",
            "img": "./img/IMG_0110.jpg",
            "type": "正餐",
            "longitude": "120.65441961519161",
            "latitude": "24.151234569039914"
        },
        {
            "name": "小野食堂",
            "rate": "2/5",
            "address": "403台中市西區精誠五街17號",
            "recommend": [
                "唐揚炸雞球飯糰套餐"
            ],
            "url": "#",
            "img": "./img/IMG_0257.jpg",
            "type": "正餐",
            "longitude": "120.65729285752099",
            "latitude": "24.15575132488187"
        },
        {
            "name": "Overture序曲 國美12",
            "rate": "3/5",
            "address": "403台中市西區五權路2-72巷12號",
            "recommend": [
                "酸甜檸檬乳酪千層"
            ],
            "url": "#",
            "img": "./img/IMG_0265.jpg",
            "type": "甜點",
            "longitude": "120.66626773053292",
            "latitude": "24.140310606707693"
        },
        {
            "name": "道樂商店",
            "rate": "5/5",
            "address": "108台北市萬華區成都路27巷12號",
            "recommend": [
                "海老味噌沾麵 $270"
            ],
            "url": "#",
            "img": "./img/IMG_2813.jpg",
            "type": "拉麵",
            "longitude": "121.50680524405482",
            "latitude": "25.043386642853587"
        },
        {
            "name": "RISO RISO 里頌地中海餐酒館",
            "rate": "4/5",
            "address": "403台中市西區向上路一段79巷56號",
            "recommend": [
                "海鮮燉飯",
                "Oolong & Berry (調酒)"
            ],
            "url": "#",
            "img": "./img/IMG_0267.jpg",
            "type": "正餐",
            "longitude": "120.66417583919922",
            "latitude": "24.145586387739808"
        },
        {
            "name": "來森もり",
            "rate": "2.5/5",
            "address": "407台中市西屯區精誠路50巷35號",
            "recommend": [
                "草莓抹茶戚風 $190",
                "白蘭地黑糖布丁 $90"
            ],
            "url": "#",
            "img": "./img/IMG_0272.jpg",
            "type": "甜點",
            "longitude": "120.65528177101498",
            "latitude": "24.15718189092649"
        },
        {
            "name": "Roundabout Café 圓環咖啡 《梅川店》",
            "rate": "3.5/5",
            "address": "404台中市北區梅川東路三段207號",
            "recommend": [
                "厚切火腿花醬三明治 $270"
            ],
            "url": "#",
            "img": "./img/IMG_1755.jpg",
            "type": "甜點",
            "longitude": "120.67587514402692",
            "latitude": "24.156691548957905"
        },
        {
            "name": "蜷尾家甘味處散步甜食",
            "rate": "4.5/5",
            "address": "700台南市中西區正興街92號",
            "recommend": [
                "包種茶霜淇淋 $90"
            ],
            "url": "#",
            "img": "./img/IMG_0612.jpg",
            "type": "甜點",
            "longitude": "120.19717481421418",
            "latitude": "22.99505834869577"
        },
        {
            "name": "公館手作 熟成紅茶專賣店",
            "rate": "3.5/5",
            "address": "700台南市中西區友愛街89號",
            "recommend": [
                "西施紅茶(M) $40"
            ],
            "url": "#",
            "img": "./img/IMG_0620.jpg",
            "type": "甜點",
            "longitude": "120.20081519574238",
            "latitude": "22.991395786997657"
        },
        {
            "name": "遺忘的故鄉 月廬食堂",
            "rate": "4.5/5",
            "address": "975花蓮縣鳳林鎮鳳鳴一路71號",
            "recommend": [
                "炭烤梅子雞"
            ],
            "url": "#",
            "img": "./img/IMG_1072.jpg",
            "type": "正餐",
            "longitude": "121.43828050169759",
            "latitude": "23.761192255689846"
        },
        {
            "name": "055龍蝦海鮮",
            "rate": "4/5",
            "address": "974花蓮縣壽豐鄉132號",
            "recommend": [
                "清蒸龍蝦"
            ],
            "url": "#",
            "img": "./img/IMG_1198.jpg",
            "type": "正餐",
            "longitude": "121.59905066903563",
            "latitude": "23.86981655149278"
        },
        {
            "name": "矮仔成蝦仁飯",
            "rate": "3.5/5",
            "address": "700台南市中西區海安路一段66號",
            "recommend": [
                "蝦仁飯 大$100 小$60"
            ],
            "url": "#",
            "img": "./img/IMG_1362.jpg",
            "type": "正餐",
            "longitude": "120.19532575936823",
            "latitude": "22.989201726728478"
        },
        {
            "name": "Chun純薏仁。甜點。",
            "rate": "3.5/5",
            "address": "700台南市中西區友愛街115巷7號",
            "recommend": [
                "白玉紅豆薏仁 $90",
                "冰淇淋薏仁 $100"
            ],
            "url": "#",
            "img": "./img/IMG_1394.jpg",
            "type": "甜點",
            "longitude": "120.19959598820357",
            "latitude": "22.990977347185204"
        },
        {
            "name": "小次男 咖哩所",
            "rate": "4/5",
            "address": "400台中市中區成功路156號",
            "recommend": [
                "經典牛肉咖哩(加辣醬) $250"
            ],
            "url": "#",
            "img": "./img/IMG_1465.jpg",
            "type": "正餐",
            "longitude": "120.6828356998503",
            "latitude": "24.141249433716457"
        },
        {
            "name": "田樂公正小巷店_for Farm Burger",
            "rate": "4/5",
            "address": "403台中市西區公正路128號小巷號旁",
            "recommend": [
                "起司燒烤唐揚雞腿堡 $240",
                "手工焦糖烤布丁 $280"
            ],
            "url": "#",
            "img": "./img/IMG_1915.jpg",
            "type": "正餐",
            "longitude": "120.6620877288353",
            "latitude": "24.149351702625495"
        },
        {
            "name": "卉-Hui café·法式甜點·早午餐",
            "rate": "4/5",
            "address": "404台中市北區日興街190號",
            "recommend": [
                "鹹檸雞堡 $290"
            ],
            "url": "#",
            "img": "./img/IMG_1957.jpg",
            "type": "甜點",
            "longitude": "120.67623667542375",
            "latitude": "24.151482196509534"
        },
        {
            "name": "蝦蝦拉麵 元氣屋",
            "rate": "5/5",
            "address": "403台中市西區中美街419之4號",
            "recommend": [
                "招牌蝦蝦拉麵 $250"
            ],
            "url": "#",
            "img": "./img/IMG_2422.jpg",
            "type": "拉麵",
            "longitude": "120.65997837284932",
            "latitude": "24.15344879129046"
        },
        {
            "name": "丰富食堂 Home Foodie",
            "rate": "3.5/5",
            "address": "510彰化縣員林市莒光路686號",
            "recommend": [
                "紅酒燉牛肉定食 $340"
            ],
            "url": "#",
            "img": "./img/IMG_1961.jpg",
            "type": "正餐",
            "longitude": "120.56728956618339",
            "latitude": "23.968711874402118"
        },
        {
            "name": "佔位",
            "rate": "4/5",
            "address": "510彰化縣員林市和平東街52號",
            "recommend": [
                "奶油野菇蟹肉麵 $255"
            ],
            "url": "#",
            "img": "./img/IMG_1977.jpg",
            "type": "正餐",
            "longitude": "120.57609580169704",
            "latitude": "23.96259805783438"
        },
        {
            "name": "Feeling18(18度C巧克力工房)",
            "rate": "4/5",
            "address": "545南投縣埔里鎮慈恩街20號",
            "recommend": [
                "瓜納拉之心",
                "阿薩姆奶香"
            ],
            "url": "#",
            "img": "./img/IMG_2109.jpg",
            "type": "甜點",
            "longitude": "120.974847339254614",
            "latitude": "23.957562974810703"
        },
        {
            "name": "飪室咖哩 RenshiCurry 勤美店",
            "rate": "2.5/5",
            "address": "403台中市西區美村路一段149巷19號",
            "recommend": [
                "琪瑪咖哩 $280",
                "蒜味甩餅 $60"
            ],
            "url": "#",
            "img": "./img/IMG_2147.jpg",
            "type": "正餐",
            "longitude": "120.6626272592351",
            "latitude": "24.15167106607534"
        },
        {
            "name": "慕泥灰咖啡文創店",
            "rate": "3.5/5",
            "address": "402台中市南區愛國街139號",
            "recommend": [
                "三杯麻油棒棒雞 $310"
            ],
            "url": "#",
            "img": "./img/IMG_2408.jpg",
            "type": "正餐",
            "longitude": "120.68040813236668",
            "latitude": "24.132142032724104"
        },
        {
            "name": "麵屋田宗",
            "rate": "5/5",
            "address": "404台中市北區大義街137號",
            "recommend": [
                "魚介沾麵 $290"
            ],
            "url": "#",
            "img": "./img/IMG_6058.jpg",
            "type": "拉麵",
            "longitude": "120.68356697104207",
            "latitude": "24.16246880526605"
        },
        {
            "name": "waku waku burger 中山店",
            "rate": "5/5",
            "address": "104台北市中山區南京西路14號5AF",
            "recommend": [
                "塔塔醬唐揚雞腿堡 $260",
                "焙茶白葡萄焦糖法式 $270"
            ],
            "url": "#",
            "img": "./img/IMG_7008.jpg",
            "type": "正餐",
            "longitude": "121.52071991225694",
            "latitude": "25.05230643480842"
        },
        {
            "name": "1%bakery乳酪蛋糕-公益店",
            "rate": "3.5/5",
            "address": "403台中市西區公益路371號",
            "recommend": [
                "純。生奶油草莓塔",
                "伯爵奶茶餅乾重乳酪蛋糕"
            ],
            "url": "#",
            "img": "./img/D4771523-8345-4255-AEF1-D28EA240948C.jpg",
            "type": "甜點",
            "longitude": "120.65366158437357",
            "latitude": "24.153600183150814"
        },
        {
            "name": "醇涎坊古早味鍋燒意麵",
            "rate": "4/5",
            "address": "700台南市中西區保安路53號",
            "recommend": [
                "鍋燒意麵 大$65 小$55"
            ],
            "url": "#",
            "img": "./img/IMG_1170.jpg",
            "type": "正餐",
            "longitude": "120.19654904587424",
            "latitude": "22.99044029471052"
        }
    ]
}